source,time,yaw,pitch,roll,altitude,lat,lng,relative_alt,pointing_a,pointing_b,pointing_c
ATTITUDE,169.191,2.608625888824463,-0.05020708590745926,0.20711897313594818,,,,,,,
AHRS2,,2.593322515487671,-0.04496567323803902,0.2138080596923828,0.0,0.0,0.0,,,,
AHRS3,,2.608625888824463,-0.05020708590745926,0.20711897313594818,56.0,48.5468682,35.101517699999995,,,,
GLOBAL_POSITION_INT,169.091,,,,,48.5468682,35.101517699999995,-0.852,,,
MOUNT_STATUS,,,,,,,,,44.0,0.0,-143.0
GPS_RAW_INT,169.291,0.0,,,,48.546869099999995,35.1015168,,,,
GPS2_RAW,169.292,0.0,,,,48.546869099999995,35.1015168,,,,
GLOBAL_POSITION_INT,169.291,,,,,48.5468683,35.1015176,-0.848,,,
ATTITUDE,169.491,2.608625888824463,-0.05004556477069855,0.2071329951286316,,,,,,,
AHRS2,,2.593008041381836,-0.04439156502485275,0.21456822752952576,0.0,0.0,0.0,,,,
AHRS3,,2.608625888824463,-0.05004556477069855,0.2071329951286316,56.0,48.5468683,35.1015176,,,,
MOUNT_STATUS,,,,,,,,,44.0,0.0,-143.0
GPS_RAW_INT,169.49099999999999,0.0,,,,48.546869199999996,35.1015167,,,,
GPS2_RAW,169.49099999999999,0.0,,,,48.546869199999996,35.1015167,,,,
GLOBAL_POSITION_INT,169.691,,,,,48.5468684,35.1015175,-0.85,,,
ATTITUDE,169.752,2.608603000640869,-0.05000118166208267,0.20713236927986145,,,,,,,
AHRS2,,2.5928168296813965,-0.045295726507902145,0.21419605612754822,0.0,0.0,0.0,,,,
AHRS3,,2.608603000640869,-0.05000118166208267,0.20713236927986145,56.0,48.5468684,35.1015175,,,,
GPS_RAW_INT,169.691,0.0,,,,48.5468693,35.1015167,,,,
GPS2_RAW,169.691,0.0,,,,48.5468693,35.1015167,,,,
MOUNT_STATUS,,,,,,,,,44.0,0.0,-143.0
GLOBAL_POSITION_INT,169.891,,,,,48.5468684,35.1015175,-0.858,,,
ATTITUDE,170.071,2.6085968017578125,-0.050090186297893524,0.20733311772346497,,,,,,,
AHRS2,,2.5925605297088623,-0.04573768004775047,0.21451102197170258,0.0,0.0,0.0,,,,
AHRS3,,2.608593702316284,-0.05011413246393204,0.20734840631484985,56.0,48.5468684,35.1015174,,,,
GPS_RAW_INT,170.09099999999998,0.0,,,,48.5468693,35.1015168,,,,
GPS2_RAW,170.09099999999998,0.0,,,,48.5468693,35.1015168,,,,
MOUNT_STATUS,,,,,,,,,44.0,0.0,-143.0
GLOBAL_POSITION_INT,170.091,,,,,48.5468684,35.1015174,-0.867,,,
GPS_RAW_INT,170.291,0.0,,,,48.5468694,35.101517,,,,
GPS2_RAW,170.291,0.0,,,,48.5468694,35.101517,,,,
ATTITUDE,170.391,2.6085712909698486,-0.05019339174032211,0.2074580192565918,,,,,,,
AHRS2,,2.5926949977874756,-0.045063648372888565,0.21347592771053314,0.0,0.0,0.0,,,,
AHRS3,,2.6085712909698486,-0.05019339174032211,0.2074580192565918,56.0,48.546868499999995,35.1015175,,,,
MOUNT_STATUS,,,,,,,,,44.0,0.0,-144.0
GLOBAL_POSITION_INT,170.491,,,,,48.546868499999995,35.1015175,-0.879,,,
GPS_RAW_INT,170.49099999999999,0.0,,,,48.5468694,35.101517099999995,,,,
GPS2_RAW,170.49099999999999,0.0,,,,48.5468694,35.101517099999995,,,,
ATTITUDE,170.671,2.608579635620117,-0.05029048025608063,0.20726966857910156,,,,,,,
AHRS2,,2.592815637588501,-0.04549292474985123,0.2136484980583191,0.0,0.0,0.0,,,,
AHRS3,,2.608579635620117,-0.05029048025608063,0.20726966857910156,56.0,48.546868499999995,35.1015176,,,,
MOUNT_STATUS,,,,,,,,,44.0,0.0,-144.0
GLOBAL_POSITION_INT,170.691,,,,,48.546868599999996,35.101517699999995,-0.89,,,
GPS_RAW_INT,170.892,0.0,,,,48.5468696,35.1015173,,,,
GPS2_RAW,170.892,0.0,,,,48.5468696,35.1015173,,,,
ATTITUDE,170.951,2.608588218688965,-0.05031286180019379,0.2070152461528778,,,,,,,
AHRS2,,2.592924118041992,-0.04420238360762596,0.2133069932460785,0.0,0.0,0.0,,,,
AHRS3,,2.608588218688965,-0.05031286180019379,0.2070152461528778,56.0,48.546868599999996,35.101517699999995,,,,
GLOBAL_POSITION_INT,171.09,,,,,48.5468687,35.101517799999996,-0.895,,,
GPS_RAW_INT,171.09,0.0,,,,48.5468696,35.1015174,,,,
GPS2_RAW,171.09099999999998,0.0,,,,48.5468696,35.1015174,,,,
MOUNT_STATUS,,,,,,,,,44.0,0.0,-144.0
ATTITUDE,171.231,2.6086082458496094,-0.05017869919538498,0.2070423662662506,,,,,,,
AHRS2,,2.59275221824646,-0.04532189667224884,0.21487486362457275,0.0,0.0,0.0,,,,
AHRS3,,2.6086010932922363,-0.05017785727977753,0.2070695012807846,56.0,48.5468688,35.101517799999996,,,,
GPS_RAW_INT,171.291,0.0,,,,48.5468695,35.1015175,,,,
GPS2_RAW,171.291,0.0,,,,48.5468695,35.1015175,,,,
GLOBAL_POSITION_INT,171.291,,,,,48.5468688,35.1015179,-0.893,,,
MOUNT_STATUS,,,,,,,,,44.0,0.0,-145.0
ATTITUDE,171.512,2.608586549758911,-0.050356850028038025,0.20694223046302795,,,,,,,
AHRS2,,2.5926437377929688,-0.04638257622718811,0.2148892879486084,0.0,0.0,0.0,,,,
AHRS3,,2.608586549758911,-0.050356850028038025,0.20694223046302795,56.0,48.5468688,35.101518,,,,
GPS_RAW_INT,171.49099999999999,0.0,,,,48.5468694,35.1015176,,,,
GPS2_RAW,171.49099999999999,0.0,,,,48.5468694,35.1015176,,,,
GLOBAL_POSITION_INT,171.491,,,,,48.5468688,35.101518,-0.889,,,
ATTITUDE,171.751,2.6085524559020996,-0.05048370361328125,0.20711636543273926,,,,,,,
AHRS2,,2.5924434661865234,-0.04499655216932297,0.21553218364715576,0.0,0.0,0.0,,,,
AHRS3,,2.6085524559020996,-0.05048370361328125,0.20711636543273926,56.0,48.5468688,35.101518,,,,
MOUNT_STATUS,,,,,,,,,44.0,0.0,-145.0
GPS_RAW_INT,171.691,0.0,,,,48.5468694,35.1015175,,,,
GPS2_RAW,171.691,0.0,,,,48.5468694,35.1015175,,,,
GLOBAL_POSITION_INT,171.691,,,,,48.5468687,35.101518,-0.886,,,
ATTITUDE,171.991,2.608534336090088,-0.050560347735881805,0.20727965235710144,,,,,,,
AHRS2,,2.5921742916107178,-0.044307269155979156,0.21543176472187042,0.0,0.0,0.0,,,,
AHRS3,,2.608534336090088,-0.050560347735881805,0.20727965235710144,56.0,48.5468687,35.101518,,,,
MOUNT_STATUS,,,,,,,,,44.0,0.0,-145.0
GPS_RAW_INT,172.09099999999998,0.0,,,,48.5468695,35.1015175,,,,
GPS2_RAW,172.09099999999998,0.0,,,,48.5468695,35.1015175,,,,
GLOBAL_POSITION_INT,172.091,,,,,48.5468687,35.101518,-0.882,,,
ATTITUDE,173.091,2.608456611633301,-0.05076126754283905,0.20759785175323486,,,,,,,
AHRS2,,2.5913631916046143,-0.04459531605243683,0.21640433371067047,0.0,0.0,0.0,,,,
AHRS3,,2.608463764190674,-0.0507909432053566,0.20756569504737854,56.0,48.5468688,35.1015182,,,,
GPS_RAW_INT,173.09099999999998,0.0,,,,48.5468696,35.101517799999996,,,,
GPS2_RAW,173.09099999999998,0.0,,,,48.5468696,35.101517799999996,,,,
MOUNT_STATUS,,,,,,,,,44.0,0.0,-146.0
GLOBAL_POSITION_INT,173.091,,,,,48.5468688,35.1015182,-0.897,,,
GPS_RAW_INT,174.09,0.0,,,,48.546869699999995,35.1015181,,,,
GPS2_RAW,174.09099999999998,0.0,,,,48.546869699999995,35.1015181,,,,
ATTITUDE,174.171,2.608346939086914,-0.051166318356990814,0.20733752846717834,,,,,,,
AHRS2,,2.5907535552978516,-0.044006530195474625,0.21615734696388245,0.0,0.0,0.0,,,,
AHRS3,,2.608347177505493,-0.05115678161382675,0.20733948051929474,56.0,48.5468689,35.1015188,,,,
GLOBAL_POSITION_INT,174.09,,,,,48.5468689,35.1015188,-0.893,,,
MOUNT_STATUS,,,,,,,,,44.0,0.0,-147.0
GPS_RAW_INT,175.09,0.0,,,,48.546869799999996,35.101518399999996,,,,
GPS2_RAW,175.09099999999998,0.0,,,,48.546869799999996,35.101518399999996,,,,
ATTITUDE,175.251,2.608283519744873,-0.050784334540367126,0.20742011070251465,,,,,,,
AHRS2,,2.5900838375091553,-0.04330749437212944,0.21605932712554932,0.0,0.0,0.0,,,,
AHRS3,,2.608283519744873,-0.050784334540367126,0.20742011070251465,56.0,48.546869099999995,35.101518999999996,,,,
GLOBAL_POSITION_INT,175.291,,,,,48.546869099999995,35.101518999999996,-0.89,,,
MOUNT_STATUS,,,,,,,,,44.0,0.0,-148.0
GPS_RAW_INT,176.291,0.0,,,,48.546869799999996,35.1015188,,,,
GPS2_RAW,176.291,0.0,,,,48.546869799999996,35.1015188,,,,
ATTITUDE,176.33100000000002,2.6083295345306396,-0.05074009299278259,0.20750045776367188,,,,,,,
AHRS2,,2.5891830921173096,-0.041278138756752014,0.2163311243057251,0.0,0.0,0.0,,,,
AHRS3,,2.6083295345306396,-0.05074009299278259,0.20750045776367188,56.0,48.546869199999996,35.1015192,,,,
GLOBAL_POSITION_INT,176.291,,,,,48.546869199999996,35.1015192,-0.901,,,
MOUNT_STATUS,,,,,,,,,44.0,0.0,-149.0
GPS_RAW_INT,177.291,0.0,,,,48.5468701,35.101518999999996,,,,
GPS2_RAW,177.291,0.0,,,,48.5468701,35.101518999999996,,,,
ATTITUDE,177.411,2.608168840408325,-0.05045556277036667,0.2075430452823639,,,,,,,
AHRS2,,2.5884294509887695,-0.04168770834803581,0.21587423980236053,0.0,0.0,0.0,,,,
AHRS3,,2.608168840408325,-0.05045556277036667,0.2075430452823639,56.0,48.5468693,35.1015194,,,,
GLOBAL_POSITION_INT,177.291,,,,,48.5468693,35.1015194,-0.9440000000000001,,,
MOUNT_STATUS,,,,,,,,,44.0,0.0,-150.0
GPS_RAW_INT,178.291,0.0,,,,48.546870299999995,35.1015192,,,,
GPS2_RAW,178.291,0.0,,,,48.546870299999995,35.1015192,,,,
ATTITUDE,178.491,2.6080615520477295,-0.050427764654159546,0.20760412514209747,,,,,,,
AHRS2,,2.5876572132110596,-0.04329007491469383,0.21597249805927277,0.0,0.0,0.0,,,,
AHRS3,,2.6080615520477295,-0.050427764654159546,0.20760412514209747,56.0,48.5468695,35.101519599999996,,,,
GLOBAL_POSITION_INT,178.491,,,,,48.5468696,35.101519599999996,-0.978,,,
MOUNT_STATUS,,,,,,,,,44.0,0.0,-151.0
GPS_RAW_INT,179.291,0.0,,,,48.5468706,35.1015193,,,,
GPS2_RAW,179.292,0.0,,,,48.5468706,35.1015193,,,,
GLOBAL_POSITION_INT,179.491,,,,,48.546869699999995,35.1015197,-0.999,,,
ATTITUDE,179.531,2.60789155960083,-0.05038052052259445,0.20788298547267914,,,,,,,
AHRS2,,2.5869834423065186,-0.042802222073078156,0.21577274799346924,0.0,0.0,0.0,,,,
AHRS3,,2.60789155960083,-0.05038052052259445,0.20788298547267914,56.0,48.546869699999995,35.1015197,,,,
MOUNT_STATUS,,,,,,,,,44.0,0.0,-151.0
GPS_RAW_INT,180.291,0.0,,,,48.5468708,35.101519599999996,,,,
GPS2_RAW,180.292,0.0,,,,48.5468708,35.101519599999996,,,,
GLOBAL_POSITION_INT,180.491,,,,,48.54687,35.1015198,-0.987,,,
ATTITUDE,180.591,2.6076982021331787,-0.0504017099738121,0.20800933241844177,,,,,,,
AHRS2,,2.586446523666382,-0.04343238100409508,0.21644999086856842,0.0,0.0,0.0,,,,
AHRS3,,2.6076982021331787,-0.0504017099738121,0.20800933241844177,56.0,48.54687,35.1015198,,,,
MOUNT_STATUS,,,,,,,,,44.0,0.0,-152.0
GPS_RAW_INT,181.291,0.0,,,,48.5468713,35.101519599999996,,,,
GPS2_RAW,181.291,0.0,,,,48.5468713,35.101519599999996,,,,
GLOBAL_POSITION_INT,181.491,,,,,48.546870399999996,35.1015198,-0.965,,,
ATTITUDE,181.671,2.6075360774993896,-0.05017303675413132,0.2079988718032837,,,,,,,
AHRS2,,2.585963726043701,-0.04333416000008583,0.21577703952789307,0.0,0.0,0.0,,,,
AHRS3,,2.6075360774993896,-0.05017303675413132,0.2079988718032837,56.0,48.546870399999996,35.1015198,,,,
MOUNT_STATUS,,,,,,,,,44.0,0.0,-153.0
GPS_RAW_INT,182.49099999999999,0.0,,,,48.5468718,35.101519599999996,,,,
GPS2_RAW,182.49099999999999,0.0,,,,48.5468718,35.101519599999996,,,,
GLOBAL_POSITION_INT,182.691,,,,,48.546870899999995,35.1015199,-0.9540000000000001,,,
ATTITUDE,182.79,2.6075117588043213,-0.05025498569011688,0.20793463289737701,,,,,,,
AHRS2,,2.5863630771636963,-0.044527504593133926,0.21555756032466888,0.0,0.0,0.0,,,,
AHRS3,,2.6075117588043213,-0.05025498569011688,0.20793463289737701,56.0,48.546870899999995,35.1015199,,,,
MOUNT_STATUS,,,,,,,,,44.0,0.0,-154.0
GPS_RAW_INT,183.49099999999999,0.0,,,,48.546872199999996,35.1015198,,,,
GPS2_RAW,183.492,0.0,,,,48.546872199999996,35.1015198,,,,
GLOBAL_POSITION_INT,183.691,,,,,48.5468713,35.1015201,-0.9550000000000001,,,
ATTITUDE,183.851,2.6075308322906494,-0.05039197951555252,0.2077411264181137,,,,,,,
AHRS2,,2.586890697479248,-0.04352857172489166,0.21570827066898346,0.0,0.0,0.0,,,,
AHRS3,,2.6075308322906494,-0.05039197951555252,0.2077411264181137,56.0,48.5468713,35.1015201,,,,
MOUNT_STATUS,,,,,,,,,44.0,0.0,-155.0
GPS_RAW_INT,184.49099999999999,0.0,,,,48.546872699999994,35.1015198,,,,
GPS2_RAW,184.492,0.0,,,,48.546872699999994,35.1015198,,,,
GLOBAL_POSITION_INT,184.691,,,,,48.5468717,35.1015201,-0.985,,,
ATTITUDE,184.97,2.6073052883148193,-0.05045579373836517,0.20803214609622955,,,,,,,
AHRS2,,2.586332321166992,-0.04398234933614731,0.21685659885406494,0.0,0.0,0.0,,,,
AHRS3,,2.6073052883148193,-0.05045579373836517,0.20803214609622955,56.0,48.5468717,35.1015201,,,,
MOUNT_STATUS,,,,,,,,,44.0,0.0,-156.0
GPS_RAW_INT,185.49099999999999,0.0,,,,48.5468731,35.1015198,,,,
GPS2_RAW,185.492,0.0,,,,48.5468731,35.1015198,,,,
GLOBAL_POSITION_INT,185.691,,,,,48.546872099999995,35.101520199999996,-1.0210000000000001,,,
ATTITUDE,186.031,2.6072750091552734,-0.05041597783565521,0.20810237526893616,,,,,,,
AHRS2,,2.5862724781036377,-0.04298830404877663,0.215793177485466,0.0,0.0,0.0,,,,
AHRS3,,2.6072750091552734,-0.05041597783565521,0.20810237526893616,56.0,48.546872199999996,35.1015203,,,,
MOUNT_STATUS,,,,,,,,,44.0,0.0,-157.0
GPS_RAW_INT,186.49099999999999,0.0,,,,48.5468735,35.101519599999996,,,,
GPS2_RAW,186.492,0.0,,,,48.5468735,35.101519599999996,,,,
GLOBAL_POSITION_INT,186.891,,,,,48.5468726,35.1015203,-1.0190000000000001,,,
ATTITUDE,187.092,2.6072824001312256,-0.05064360052347183,0.20797720551490784,,,,,,,
AHRS2,,2.5858500003814697,-0.043901942670345306,0.21669386327266693,0.0,0.0,0.0,,,,
AHRS3,,2.6072824001312256,-0.05064360052347183,0.20797720551490784,56.0,48.5468726,35.1015203,,,,
MOUNT_STATUS,,,,,,,,,44.0,0.0,-158.0
GPS_RAW_INT,187.69199999999998,0.0,,,,48.5468735,35.101519499999995,,,,
GPS2_RAW,187.69199999999998,0.0,,,,48.5468735,35.101519499999995,,,,
GLOBAL_POSITION_INT,187.891,,,,,48.546872699999994,35.1015201,-1.004,,,
ATTITUDE,188.191,2.607128143310547,-0.05075021833181381,0.20836125314235687,,,,,,,
AHRS2,,2.584951877593994,-0.0432128943502903,0.21762818098068237,0.0,0.0,0.0,,,,
AHRS3,,2.607128143310547,-0.05075021833181381,0.20836125314235687,56.0,48.546872699999994,35.10152,,,,
MOUNT_STATUS,,,,,,,,,44.0,0.0,-159.0
GPS_RAW_INT,188.691,0.0,,,,48.5468736,35.101518899999995,,,,
GPS2_RAW,188.69199999999998,0.0,,,,48.5468736,35.101518899999995,,,,
GLOBAL_POSITION_INT,188.891,,,,,48.5468729,35.1015194,-0.991,,,
ATTITUDE,189.27100000000002,2.6070446968078613,-0.050253018736839294,0.20851828157901764,,,,,,,
AHRS2,,2.5849769115448,-0.04332602396607399,0.2166731357574463,0.0,0.0,0.0,,,,
AHRS3,,2.6070446968078613,-0.050253018736839294,0.20851828157901764,56.0,48.546873,35.1015193,,,,
MOUNT_STATUS,,,,,,,,,44.0,0.0,-160.0
GPS_RAW_INT,189.691,0.0,,,,48.5468736,35.101518999999996,,,,
GPS2_RAW,189.69199999999998,0.0,,,,48.5468736,35.101518999999996,,,,
GLOBAL_POSITION_INT,190.091,,,,,48.546873,35.1015193,-0.974,,,
ATTITUDE,190.312,2.6069517135620117,-0.05069582164287567,0.20813263952732086,,,,,,,
AHRS2,,2.584909677505493,-0.044630780816078186,0.21691715717315674,0.0,0.0,0.0,,,,
AHRS3,,2.6069517135620117,-0.05069582164287567,0.20813263952732086,56.0,48.546873,35.1015193,,,,
MOUNT_STATUS,,,,,,,,,44.0,0.0,-161.0
GPS_RAW_INT,190.691,0.0,,,,48.5468736,35.1015188,,,,
GPS2_RAW,190.69199999999998,0.0,,,,48.5468736,35.1015188,,,,
MOUNT_STATUS,,,,,,,,,44.0,0.0,-161.0
GPS_RAW_INT,190.891,0.0,,,,48.5468736,35.1015188,,,,
GPS2_RAW,190.892,0.0,,,,48.5468736,35.1015188,,,,
GLOBAL_POSITION_INT,191.111,,,,,48.546873,35.1015193,-0.981,,,
ATTITUDE,191.391,2.6068904399871826,-0.050754643976688385,0.20765845477581024,,,,,,,
AHRS2,,2.5857319831848145,-0.045090917497873306,0.21519255638122559,0.0,0.0,0.0,,,,
AHRS3,,2.6068904399871826,-0.050754643976688385,0.20765845477581024,56.0,48.546873,35.1015194,,,,
GPS_RAW_INT,191.49099999999999,0.0,,,,48.546873399999996,35.101518999999996,,,,
GPS2_RAW,191.492,0.0,,,,48.546873399999996,35.101518999999996,,,,
MOUNT_STATUS,,,,,,,,,44.0,0.0,-162.0
ATTITUDE,191.671,2.6069319248199463,-0.05090100318193436,0.2076490968465805,,,,,,,
AHRS2,,2.585726261138916,-0.044973939657211304,0.21580258011817932,0.0,0.0,0.0,,,,
AHRS3,,2.6069319248199463,-0.05090100318193436,0.2076490968465805,56.0,48.546873,35.101519499999995,,,,
GLOBAL_POSITION_INT,191.691,,,,,48.546873,35.101519499999995,-0.994,,,
ATTITUDE,191.911,2.606898069381714,-0.05097711831331253,0.20755738019943237,,,,,,,
AHRS2,,2.585843086242676,-0.04433632269501686,0.21399575471878052,0.0,0.0,0.0,,,,
AHRS3,,2.606898069381714,-0.05097711831331253,0.20755738019943237,56.0,48.546873,35.1015197,,,,
GPS_RAW_INT,191.911,0.0,,,,48.546873399999996,35.1015192,,,,
GPS2_RAW,191.911,0.0,,,,48.546873399999996,35.1015192,,,,
MOUNT_STATUS,,,,,,,,,45.0,1.0,-162.0
ATTITUDE,192.17000000000002,2.606898784637451,-0.050961099565029144,0.20743778347969055,,,,,,,
AHRS2,,2.5861308574676514,-0.044945213943719864,0.21501117944717407,0.0,0.0,0.0,,,,
AHRS3,,2.606898784637451,-0.050961099565029144,0.20743778347969055,56.0,48.5468729,35.1015198,,,,
GLOBAL_POSITION_INT,192.091,,,,,48.5468729,35.1015198,-1.0,,,
ATTITUDE,192.411,2.606870412826538,-0.05093789100646973,0.2074221968650818,,,,,,,
AHRS2,,2.586198329925537,-0.04443720728158951,0.2154853194952011,0.0,0.0,0.0,,,,
AHRS3,,2.606870412826538,-0.05093789100646973,0.2074221968650818,56.0,48.5468729,35.1015198,,,,
GPS_RAW_INT,192.49099999999999,0.0,,,,48.546873399999996,35.1015191,,,,
GPS2_RAW,192.49099999999999,0.0,,,,48.546873399999996,35.1015191,,,,
MOUNT_STATUS,,,,,,,,,44.0,1.0,-162.0
ATTITUDE,192.692,2.606842041015625,-0.05089173465967178,0.2074417918920517,,,,,,,
AHRS2,,2.586343288421631,-0.04485462233424187,0.2158459573984146,0.0,0.0,0.0,,,,
AHRS3,,2.606842041015625,-0.05089173465967178,0.2074417918920517,56.0,48.5468729,35.1015199,,,,
GLOBAL_POSITION_INT,192.691,,,,,48.5468729,35.1015198,-1.01,,,
ATTITUDE,192.951,2.6068711280822754,-0.050855331122875214,0.20772913098335266,,,,,,,
AHRS2,,2.5865349769592285,-0.044930245727300644,0.2157072126865387,0.0,0.0,0.0,,,,
AHRS3,,2.6068711280822754,-0.050855331122875214,0.20772913098335266,56.0,48.546872799999996,35.1015198,,,,
GPS_RAW_INT,193.09099999999998,0.0,,,,48.546873299999994,35.101518999999996,,,,
GPS2_RAW,193.09199999999998,0.0,,,,48.546873299999994,35.101518999999996,,,,
ATTITUDE,193.231,2.606827735900879,-0.05074888467788696,0.2077351212501526,,,,,,,
AHRS2,,2.586578607559204,-0.044026121497154236,0.21495667099952698,0.0,0.0,0.0,,,,
AHRS3,,2.606827735900879,-0.05074888467788696,0.2077351212501526,56.0,48.546872799999996,35.1015198,,,,
MOUNT_STATUS,,,,,,,,,45.0,22.0,-164.0
GLOBAL_POSITION_INT,193.291,,,,,48.546872799999996,35.1015198,-1.031,,,
ATTITUDE,193.471,2.6068460941314697,-0.05066592991352081,0.20769102871418,,,,,,,
AHRS2,,2.586519479751587,-0.04371613636612892,0.21573983132839203,0.0,0.0,0.0,,,,
AHRS3,,2.6068460941314697,-0.05066592991352081,0.20769102871418,56.0,48.546872799999996,35.1015198,,,,
GPS_RAW_INT,193.48999999999998,0.0,,,,48.546873299999994,35.101518899999995,,,,
GPS2_RAW,193.49099999999999,0.0,,,,48.546873299999994,35.101518899999995,,,,
ATTITUDE,193.751,2.6067562103271484,-0.05051851272583008,0.2076733112335205,,,,,,,
AHRS2,,2.5863547325134277,-0.04367566853761673,0.21542683243751526,0.0,0.0,0.0,,,,
AHRS3,,2.606755018234253,-0.0505172535777092,0.2076680213212967,56.0,48.546872799999996,35.1015197,,,,
GLOBAL_POSITION_INT,193.691,,,,,48.546872799999996,35.1015197,-1.044,,,
MOUNT_STATUS,,,,,,,,,44.0,5.0,-163.0
ATTITUDE,193.99,2.606755256652832,-0.05041004717350006,0.20769593119621277,,,,,,,
AHRS2,,2.5863776206970215,-0.043633509427309036,0.21528705954551697,0.0,0.0,0.0,,,,
AHRS3,,2.606755256652832,-0.05041004717350006,0.20769593119621277,56.0,48.546872799999996,35.1015197,,,,
GPS_RAW_INT,194.09099999999998,0.0,,,,48.546873399999996,35.101518899999995,,,,
GPS2_RAW,194.09199999999998,0.0,,,,48.546873399999996,35.101518899999995,,,,
ATTITUDE,194.251,2.6067299842834473,-0.05027423053979874,0.20769593119621277,,,,,,,
AHRS2,,2.5864267349243164,-0.04430452361702919,0.21613672375679016,0.0,0.0,0.0,,,,
AHRS3,,2.6067299842834473,-0.05027423053979874,0.20769593119621277,56.0,48.546872799999996,35.1015197,,,,
GLOBAL_POSITION_INT,194.291,,,,,48.546872799999996,35.1015197,-1.065,,,
MOUNT_STATUS,,,,,,,,,44.0,1.0,-164.0
ATTITUDE,194.531,2.606692314147949,-0.05024247616529465,0.20784223079681396,,,,,,,
AHRS2,,2.586477279663086,-0.04454779252409935,0.21636377274990082,0.0,0.0,0.0,,,,
AHRS3,,2.606692314147949,-0.05024247616529465,0.20784223079681396,56.0,48.546872799999996,35.101519599999996,,,,
GPS_RAW_INT,194.49099999999999,0.0,,,,48.546873399999996,35.1015187,,,,
GPS2_RAW,194.492,0.0,,,,48.546873399999996,35.1015187,,,,
ATTITUDE,194.791,2.606677293777466,-0.05017644166946411,0.2078997641801834,,,,,,,
AHRS2,,2.5865089893341064,-0.0446016825735569,0.216417133808136,0.0,0.0,0.0,,,,
AHRS3,,2.606677293777466,-0.05017644166946411,0.2078997641801834,56.0,48.546872799999996,35.101519499999995,,,,
GLOBAL_POSITION_INT,194.891,,,,,48.546872799999996,35.101519499999995,-1.098,,,
MOUNT_STATUS,,,,,,,,,44.0,0.0,-164.0
ATTITUDE,195.031,2.6066744327545166,-0.050084009766578674,0.20802225172519684,,,,,,,
AHRS2,,2.586451292037964,-0.04506374150514603,0.21576358377933502,0.0,0.0,0.0,,,,
AHRS3,,2.6066744327545166,-0.050084009766578674,0.20802225172519684,56.0,48.546872799999996,35.1015194,,,,
GPS_RAW_INT,195.09099999999998,0.0,,,,48.546873399999996,35.1015186,,,,
GPS2_RAW,195.09199999999998,0.0,,,,48.546873399999996,35.1015186,,,,
ATTITUDE,195.312,2.6066670417785645,-0.0500539168715477,0.20824748277664185,,,,,,,
AHRS2,,2.586811065673828,-0.04517151787877083,0.21566611528396606,0.0,0.0,0.0,,,,
AHRS3,,2.6066670417785645,-0.0500539168715477,0.20824748277664185,56.0,48.546872699999994,35.1015194,,,,
GLOBAL_POSITION_INT,195.291,,,,,48.546872699999994,35.1015194,-1.107,,,
MOUNT_STATUS,,,,,,,,,44.0,0.0,-165.0
ATTITUDE,195.57,2.606618642807007,-0.05008412152528763,0.2080082893371582,,,,,,,
AHRS2,,2.586846351623535,-0.045345570892095566,0.21576422452926636,0.0,0.0,0.0,,,,
AHRS3,,2.606618642807007,-0.05008412152528763,0.2080082893371582,56.0,48.546872699999994,35.1015194,,,,
GPS_RAW_INT,195.49099999999999,0.0,,,,48.546873299999994,35.1015187,,,,
GPS2_RAW,195.492,0.0,,,,48.546873299999994,35.1015187,,,,
ATTITUDE,195.81,2.606658935546875,-0.050053395330905914,0.20790010690689087,,,,,,,
AHRS2,,2.587273597717285,-0.0448433943092823,0.21575389802455902,0.0,0.0,0.0,,,,
AHRS3,,2.6066646575927734,-0.050045840442180634,0.20787087082862854,56.0,48.546872699999994,35.1015194,,,,
GLOBAL_POSITION_INT,195.891,,,,,48.546872799999996,35.1015194,-1.102,,,
ATTITUDE,196.092,2.606619358062744,-0.049917757511138916,0.20794929563999176,,,,,,,
AHRS2,,2.5874996185302734,-0.044698357582092285,0.21575216948986053,0.0,0.0,0.0,,,,
AHRS3,,2.606619358062744,-0.049917757511138916,0.20794929563999176,56.0,48.546872799999996,35.1015193,,,,
MOUNT_STATUS,,,,,,,,,44.0,0.0,-165.0
GPS_RAW_INT,196.09099999999998,0.0,,,,48.546873299999994,35.101518299999995,,,,
GPS2_RAW,196.09199999999998,0.0,,,,48.546873299999994,35.101518299999995,,,,
ATTITUDE,196.352,2.606614589691162,-0.04990348219871521,0.20823153853416443,,,,,,,
AHRS2,,2.5876946449279785,-0.04661713168025017,0.21611429750919342,0.0,0.0,0.0,,,,
AHRS3,,2.606614589691162,-0.04990348219871521,0.20823153853416443,56.0,48.546872699999994,35.1015192,,,,
GLOBAL_POSITION_INT,196.491,,,,,48.546872699999994,35.1015191,-1.115,,,
ATTITUDE,196.631,2.606616735458374,-0.049883291125297546,0.20842382311820984,,,,,,,
AHRS2,,2.5879006385803223,-0.04617997258901596,0.21538136899471283,0.0,0.0,0.0,,,,
AHRS3,,2.606616735458374,-0.049883291125297546,0.20842382311820984,56.0,48.546872699999994,35.1015191,,,,
GPS_RAW_INT,196.49099999999999,0.0,,,,48.546873299999994,35.1015181,,,,
GPS2_RAW,196.492,0.0,,,,48.546873299999994,35.1015181,,,,
MOUNT_STATUS,,,,,,,,,44.0,0.0,-166.0
ATTITUDE,196.892,2.6065940856933594,-0.04992573708295822,0.20856152474880219,,,,,,,
AHRS2,,2.5881547927856445,-0.04572311043739319,0.21596452593803406,0.0,0.0,0.0,,,,
AHRS3,,2.6065940856933594,-0.04992573708295822,0.20856152474880219,56.0,48.546872699999994,35.101518999999996,,,,
GLOBAL_POSITION_INT,196.891,,,,,48.546872699999994,35.101518899999995,-1.1260000000000001,,,
ATTITUDE,197.132,2.606595993041992,-0.04996497184038162,0.20831608772277832,,,,,,,
AHRS2,,2.5884311199188232,-0.04625962674617767,0.21549898386001587,0.0,0.0,0.0,,,,
AHRS3,,2.606595993041992,-0.04996497184038162,0.20831608772277832,56.0,48.546872699999994,35.101518899999995,,,,
GPS_RAW_INT,197.10999999999999,0.0,,,,48.546873399999996,35.101517799999996,,,,
GPS2_RAW,197.10999999999999,0.0,,,,48.546873399999996,35.101517799999996,,,,
MOUNT_STATUS,,,,,,,,,44.0,0.0,-166.0
ATTITUDE,197.391,2.606663227081299,-0.04992585629224777,0.20813864469528198,,,,,,,
AHRS2,,2.5886707305908203,-0.04584440961480141,0.21562670171260834,0.0,0.0,0.0,,,,
AHRS3,,2.606663227081299,-0.04992585629224777,0.20813864469528198,56.0,48.546872699999994,35.1015188,,,,
GLOBAL_POSITION_INT,197.491,,,,,48.546872699999994,35.1015187,-1.1380000000000001,,,
GPS_RAW_INT,197.691,0.0,,,,48.5468737,35.1015176,,,,
GPS2_RAW,197.691,0.0,,,,48.5468737,35.1015176,,,,
ATTITUDE,197.71200000000002,2.6066129207611084,-0.0499064102768898,0.20803691446781158,,,,,,,
AHRS2,,2.5888450145721436,-0.04531949386000633,0.2150755673646927,0.0,0.0,0.0,,,,
AHRS3,,2.6066129207611084,-0.0499064102768898,0.20803691446781158,56.0,48.546872699999994,35.1015187,,,,
MOUNT_STATUS,,,,,,,,,44.0,0.0,-167.0
ATTITUDE,197.971,2.6066484451293945,-0.04973219335079193,0.20788928866386414,,,,,,,
AHRS2,,2.5889596939086914,-0.044221241027116776,0.21494737267494202,0.0,0.0,0.0,,,,
AHRS3,,2.6066484451293945,-0.04973219335079193,0.20788928866386414,56.0,48.546872799999996,35.1015186,,,,
GLOBAL_POSITION_INT,198.091,,,,,48.5468729,35.1015185,-1.122,,,
GPS_RAW_INT,198.09099999999998,0.0,,,,48.5468738,35.101517099999995,,,,
GPS2_RAW,198.09199999999998,0.0,,,,48.5468738,35.101517099999995,,,,
ATTITUDE,198.29,2.606602668762207,-0.04969240725040436,0.20791974663734436,,,,,,,
AHRS2,,2.588759422302246,-0.047275517135858536,0.21634894609451294,0.0,0.0,0.0,,,,
AHRS3,,2.606602668762207,-0.04969240725040436,0.20791974663734436,56.0,48.5468729,35.101518399999996,,,,
MOUNT_STATUS,,,,,,,,,44.0,0.0,-167.0
ATTITUDE,198.512,2.6065499782562256,-0.049738407135009766,0.20786204934120178,,,,,,,
AHRS2,,2.5891621112823486,-0.044541385024785995,0.21427389979362488,0.0,0.0,0.0,,,,
AHRS3,,2.6065499782562256,-0.049738407135009766,0.20786204934120178,56.0,48.546873,35.101518299999995,,,,
GLOBAL_POSITION_INT,198.491,,,,,48.546873,35.101518299999995,-1.112,,,
GPS_RAW_INT,198.691,0.0,,,,48.546873999999995,35.1015169,,,,
GPS2_RAW,198.69199999999998,0.0,,,,48.546873999999995,35.1015169,,,,
ATTITUDE,198.77100000000002,2.6065266132354736,-0.049609653651714325,0.20766325294971466,,,,,,,
AHRS2,,2.589078903198242,-0.045363400131464005,0.21474894881248474,0.0,0.0,0.0,,,,
AHRS3,,2.6065266132354736,-0.049609653651714325,0.20766325294971466,56.0,48.5468731,35.1015182,,,,
ATTITUDE,199.031,2.6065738201141357,-0.04970252513885498,0.20760482549667358,,,,,,,
AHRS2,,2.5890464782714844,-0.04715294390916824,0.21554826200008392,0.0,0.0,0.0,,,,
AHRS3,,2.6065738201141357,-0.04970252513885498,0.20760482549667358,56.0,48.5468731,35.1015181,,,,
MOUNT_STATUS,,,,,,,,,44.0,0.0,-168.0
GLOBAL_POSITION_INT,199.091,,,,,48.5468731,35.1015181,-1.124,,,
GPS_RAW_INT,199.09099999999998,0.0,,,,48.5468738,35.1015169,,,,
GPS2_RAW,199.09199999999998,0.0,,,,48.5468738,35.1015169,,,,
ATTITUDE,199.292,2.6065571308135986,-0.05009244382381439,0.2076111137866974,,,,,,,
AHRS2,,2.5894527435302734,-0.04861290752887726,0.21422810852527618,0.0,0.0,0.0,,,,
AHRS3,,2.6065571308135986,-0.05009244382381439,0.2076111137866974,56.0,48.546873,35.1015182,,,,
ATTITUDE,199.55100000000002,2.606539249420166,-0.05039273947477341,0.2074812352657318,,,,,,,
AHRS2,,2.5896756649017334,-0.04548616707324982,0.2151726335287094,0.0,0.0,0.0,,,,
AHRS3,,2.606539249420166,-0.05039273947477341,0.2074812352657318,56.0,48.5468729,35.1015182,,,,
MOUNT_STATUS,,,,,,,,,44.0,0.0,-168.0
GLOBAL_POSITION_INT,199.511,,,,,48.5468729,35.1015182,-1.1280000000000001,,,
GPS_RAW_INT,199.70999999999998,0.0,,,,48.5468738,35.1015168,,,,
GPS2_RAW,199.70999999999998,0.0,,,,48.5468738,35.1015168,,,,
ATTITUDE,199.83100000000002,2.606536388397217,-0.05036243796348572,0.2073686122894287,,,,,,,
AHRS2,,2.5898678302764893,-0.04403644800186157,0.21491923928260803,0.0,0.0,0.0,,,,
AHRS3,,2.606536388397217,-0.05036243796348572,0.2073686122894287,56.0,48.546873,35.1015182,,,,
ATTITUDE,200.092,2.6065127849578857,-0.050056278705596924,0.2073887437582016,,,,,,,
AHRS2,,2.5897607803344727,-0.04434140771627426,0.21557120978832245,0.0,0.0,0.0,,,,
AHRS3,,2.6065127849578857,-0.050056278705596924,0.2073887437582016,56.0,48.546873,35.1015181,,,,
GLOBAL_POSITION_INT,200.091,,,,,48.5468731,35.101518,-1.139,,,
MOUNT_STATUS,,,,,,,,,44.0,0.0,-168.0
GPS_RAW_INT,200.09099999999998,0.0,,,,48.546873899999994,35.101516499999995,,,,
GPS2_RAW,200.09199999999998,0.0,,,,48.546873899999994,35.101516499999995,,,,
ATTITUDE,200.352,2.6065421104431152,-0.04986812174320221,0.20741845667362213,,,,,,,
AHRS2,,2.5896759033203125,-0.04464585334062576,0.2153872400522232,0.0,0.0,0.0,,,,
AHRS3,,2.6065421104431152,-0.04986812174320221,0.20741845667362213,56.0,48.5468731,35.1015179,,,,
GPS_RAW_INT,200.291,0.0,,,,48.546873899999994,35.1015164,,,,
GPS2_RAW,200.292,0.0,,,,48.546873899999994,35.1015164,,,,
MOUNT_STATUS,,,,,,,,,44.0,0.0,-169.0
ATTITUDE,200.611,2.6065101623535156,-0.04986439645290375,0.20744428038597107,,,,,,,
AHRS2,,2.5898942947387695,-0.04515838995575905,0.2145528793334961,0.0,0.0,0.0,,,,
AHRS3,,2.6065101623535156,-0.04986439645290375,0.20744428038597107,56.0,48.5468732,35.101517799999996,,,,
GLOBAL_POSITION_INT,200.691,,,,,48.5468732,35.101517799999996,-1.1500000000000001,,,
GPS_RAW_INT,200.691,0.0,,,,48.5468738,35.1015164,,,,
GPS2_RAW,200.69199999999998,0.0,,,,48.5468738,35.1015164,,,,
MOUNT_STATUS,,,,,,,,,44.0,0.0,-169.0
ATTITUDE,200.91,2.606515407562256,-0.05001533031463623,0.20761989057064056,,,,,,,
AHRS2,,2.590208053588867,-0.04564535617828369,0.21512557566165924,0.0,0.0,0.0,,,,
AHRS3,,2.606515407562256,-0.05001533031463623,0.20761989057064056,56.0,48.5468731,35.101517699999995,,,,
GPS_RAW_INT,200.911,0.0,,,,48.5468737,35.1015164,,,,
GPS2_RAW,200.892,0.0,,,,48.5468737,35.1015164,,,,
GLOBAL_POSITION_INT,200.911,,,,,48.5468731,35.101517699999995,-1.1460000000000001,,,
MOUNT_STATUS,,,,,,,,,44.0,0.0,-169.0
ATTITUDE,201.171,2.606499671936035,-0.050109751522541046,0.20753872394561768,,,,,,,
AHRS2,,2.5904293060302734,-0.04518499597907066,0.21486066281795502,0.0,0.0,0.0,,,,
AHRS3,,2.606503486633301,-0.05011153221130371,0.2075337916612625,56.0,48.5468731,35.101517699999995,,,,
GPS_RAW_INT,201.10999999999999,0.0,,,,48.5468737,35.1015164,,,,
GPS2_RAW,201.111,0.0,,,,48.5468737,35.1015164,,,,
GLOBAL_POSITION_INT,201.11,,,,,48.5468731,35.101517699999995,-1.141,,,
ATTITUDE,201.43200000000002,2.6065115928649902,-0.05013721436262131,0.20730750262737274,,,,,,,
AHRS2,,2.5903306007385254,-0.04416526108980179,0.21468782424926758,0.0,0.0,0.0,,,,
AHRS3,,2.6065115928649902,-0.05013721436262131,0.20730750262737274,56.0,48.5468731,35.1015176,,,,
GPS_RAW_INT,201.291,0.0,,,,48.5468738,35.1015163,,,,
GPS2_RAW,201.292,0.0,,,,48.5468738,35.1015163,,,,
MOUNT_STATUS,,,,,,,,,44.0,0.0,-170.0
GLOBAL_POSITION_INT,201.491,,,,,48.5468731,35.1015176,-1.1300000000000001,,,
GPS_RAW_INT,201.691,0.0,,,,48.546873899999994,35.1015161,,,,
GPS2_RAW,201.69199999999998,0.0,,,,48.546873899999994,35.1015161,,,,
ATTITUDE,201.751,2.6065101623535156,-0.049943260848522186,0.20748858153820038,,,,,,,
AHRS2,,2.590430736541748,-0.043845586478710175,0.2148609459400177,0.0,0.0,0.0,,,,
AHRS3,,2.6065101623535156,-0.049943260848522186,0.20748858153820038,56.0,48.5468732,35.1015174,,,,
GLOBAL_POSITION_INT,201.691,,,,,48.5468732,35.1015174,-1.121,,,
MOUNT_STATUS,,,,,,,,,44.0,0.0,-170.0
GPS_RAW_INT,201.911,0.0,,,,48.5468738,35.101516,,,,
GPS2_RAW,201.892,0.0,,,,48.5468738,35.101516,,,,
GLOBAL_POSITION_INT,201.911,,,,,48.5468732,35.1015173,-1.119,,,
ATTITUDE,202.05100000000002,2.606501579284668,-0.04983695596456528,0.20752595365047455,,,,,,,
AHRS2,,2.5905051231384277,-0.04436534643173218,0.21507613360881805,0.0,0.0,0.0,,,,
AHRS3,,2.606501579284668,-0.04983695596456528,0.20752595365047455,56.0,48.5468732,35.1015173,,,,
MOUNT_STATUS,,,,,,,,,45.0,0.0,-170.0
GPS_RAW_INT,202.111,0.0,,,,48.5468738,35.101515899999995,,,,
GPS2_RAW,202.111,0.0,,,,48.5468738,35.101515899999995,,,,
GLOBAL_POSITION_INT,202.291,,,,,48.5468732,35.101517199999996,-1.12,,,
ATTITUDE,202.351,2.6065025329589844,-0.04983395338058472,0.20755834877490997,,,,,,,
AHRS2,,2.5905351638793945,-0.043400704860687256,0.2153882086277008,0.0,0.0,0.0,,,,
AHRS3,,2.6065025329589844,-0.04983395338058472,0.20755834877490997,56.0,48.5468732,35.101517099999995,,,,
MOUNT_STATUS,,,,,,,,,44.0,0.0,-170.0
GPS_RAW_INT,202.511,0.0,,,,48.546873899999994,35.1015157,,,,
GPS2_RAW,202.511,0.0,,,,48.546873899999994,35.1015157,,,,
GLOBAL_POSITION_INT,202.511,,,,,48.5468732,35.101517,-1.1280000000000001,,,
ATTITUDE,202.61100000000002,2.606534004211426,-0.04980113357305527,0.20763474702835083,,,,,,,
AHRS2,,2.590549945831299,-0.04437704384326935,0.2158888876438141,0.0,0.0,0.0,,,,
AHRS3,,2.606534004211426,-0.04980113357305527,0.20763474702835083,56.0,48.5468732,35.101517,,,,
GPS_RAW_INT,202.691,0.0,,,,48.546873899999994,35.1015157,,,,
GPS2_RAW,202.69199999999998,0.0,,,,48.546873899999994,35.1015157,,,,
MOUNT_STATUS,,,,,,,,,44.0,0.0,-171.0
GLOBAL_POSITION_INT,202.691,,,,,48.5468732,35.1015169,-1.1380000000000001,,,
ATTITUDE,202.892,2.606552839279175,-0.04975467175245285,0.20761004090309143,,,,,,,
AHRS2,,2.590442419052124,-0.04410671070218086,0.21511949598789215,0.0,0.0,0.0,,,,
AHRS3,,2.606552839279175,-0.04975467175245285,0.20761004090309143,56.0,48.5468732,35.1015169,,,,
GPS_RAW_INT,202.891,0.0,,,,48.546873899999994,35.1015158,,,,
GPS2_RAW,202.892,0.0,,,,48.546873899999994,35.1015158,,,,
MOUNT_STATUS,,,,,,,,,44.0,0.0,-171.0
GLOBAL_POSITION_INT,203.091,,,,,48.5468732,35.1015169,-1.143,,,
ATTITUDE,203.151,2.6065049171447754,-0.049857497215270996,0.20757809281349182,,,,,,,
AHRS2,,2.590317487716675,-0.04467296972870827,0.21571488678455353,0.0,0.0,0.0,,,,
AHRS3,,2.6065049171447754,-0.049857497215270996,0.20757809281349182,56.0,48.5468732,35.1015169,,,,
GPS_RAW_INT,203.09099999999998,0.0,,,,48.546873899999994,35.1015158,,,,
GPS2_RAW,203.09199999999998,0.0,,,,48.546873899999994,35.1015158,,,,
MOUNT_STATUS,,,,,,,,,44.0,0.0,-171.0
GLOBAL_POSITION_INT,203.291,,,,,48.5468732,35.1015169,-1.145,,,
GPS_RAW_INT,203.291,0.0,,,,48.546873999999995,35.1015158,,,,
GPS2_RAW,203.291,0.0,,,,48.546873999999995,35.1015158,,,,
ATTITUDE,203.471,2.6065282821655273,-0.05000537633895874,0.2075727880001068,,,,,,,
AHRS2,,2.5904438495635986,-0.044337548315525055,0.2156093418598175,0.0,0.0,0.0,,,,
AHRS3,,2.6065282821655273,-0.05000537633895874,0.2075727880001068,56.0,48.5468732,35.1015169,,,,
MOUNT_STATUS,,,,,,,,,44.0,0.0,-171.0
GLOBAL_POSITION_INT,203.491,,,,,48.5468731,35.1015169,-1.145,,,
GPS_RAW_INT,203.691,0.0,,,,48.546873899999994,35.1015158,,,,
GPS2_RAW,203.69199999999998,0.0,,,,48.546873899999994,35.1015158,,,,
ATTITUDE,203.731,2.606506586074829,-0.05020550638437271,0.2076416313648224,,,,,,,
AHRS2,,2.590371608734131,-0.045126549899578094,0.21621915698051453,0.0,0.0,0.0,,,,
AHRS3,,2.606506586074829,-0.05020550638437271,0.2076416313648224,56.0,48.5468731,35.1015169,,,,
GLOBAL_POSITION_INT,203.891,,,,,48.546873,35.1015168,-1.143,,,
MOUNT_STATUS,,,,,,,,,44.0,0.0,-172.0
GPS_RAW_INT,203.891,0.0,,,,48.546873899999994,35.1015157,,,,
GPS2_RAW,203.892,0.0,,,,48.546873899999994,35.1015157,,,,
ATTITUDE,204.011,2.6064443588256836,-0.05031261593103409,0.20773613452911377,,,,,,,
AHRS2,,2.5902035236358643,-0.04415976628661156,0.215580552816391,0.0,0.0,0.0,,,,
AHRS3,,2.6064443588256836,-0.05031261593103409,0.20773613452911377,56.0,48.546873,35.1015168,,,,
GLOBAL_POSITION_INT,204.091,,,,,48.546873,35.1015167,-1.131,,,
GPS_RAW_INT,204.09099999999998,0.0,,,,48.546873999999995,35.1015155,,,,
GPS2_RAW,204.09199999999998,0.0,,,,48.546873999999995,35.1015155,,,,
MOUNT_STATUS,,,,,,,,,44.0,0.0,-172.0
ATTITUDE,204.27100000000002,2.6063544750213623,-0.050229042768478394,0.20784035325050354,,,,,,,
AHRS2,,2.5901894569396973,-0.043844565749168396,0.21673813462257385,0.0,0.0,0.0,,,,
AHRS3,,2.6063544750213623,-0.050229042768478394,0.20784035325050354,56.0,48.546873,35.1015167,,,,
GLOBAL_POSITION_INT,204.291,,,,,48.546873,35.1015166,-1.121,,,
GPS_RAW_INT,204.291,0.0,,,,48.546873899999994,35.1015154,,,,
GPS2_RAW,204.292,0.0,,,,48.546873899999994,35.1015154,,,,
MOUNT_STATUS,,,,,,,,,44.0,0.0,-172.0
ATTITUDE,204.55100000000002,2.6063551902770996,-0.05015363544225693,0.2079441398382187,,,,,,,
AHRS2,,2.590327739715576,-0.04458476975560188,0.21529579162597656,0.0,0.0,0.0,,,,
AHRS3,,2.6063551902770996,-0.05015363544225693,0.2079441398382187,56.0,48.546873,35.1015166,,,,
GLOBAL_POSITION_INT,204.691,,,,,48.546873,35.101516499999995,-1.117,,,
GPS_RAW_INT,204.691,0.0,,,,48.5468741,35.1015152,,,,
GPS2_RAW,204.69199999999998,0.0,,,,48.5468741,35.1015152,,,,
MOUNT_STATUS,,,,,,,,,44.0,0.0,-173.0
ATTITUDE,204.83,2.6064019203186035,-0.050025612115859985,0.20786795020103455,,,,,,,
AHRS2,,2.5904247760772705,-0.043886568397283554,0.21486496925354004,0.0,0.0,0.0,,,,
AHRS3,,2.6064019203186035,-0.050025612115859985,0.20786795020103455,56.0,48.5468731,35.1015164,,,,
GLOBAL_POSITION_INT,204.91,,,,,48.5468731,35.1015164,-1.114,,,
GPS_RAW_INT,204.91,0.0,,,,48.5468742,35.101515,,,,
GPS2_RAW,204.911,0.0,,,,48.5468742,35.101515,,,,
MOUNT_STATUS,,,,,,,,,44.0,0.0,-173.0
ATTITUDE,205.113,2.60636568069458,-0.04982971400022507,0.2078317105770111,,,,,,,
AHRS2,,2.5904645919799805,-0.04347517713904381,0.21505983173847198,0.0,0.0,0.0,,,,
AHRS3,,2.60636568069458,-0.04982971400022507,0.2078317105770111,56.0,48.5468732,35.1015163,,,,
GPS_RAW_INT,205.09099999999998,0.0,,,,48.5468742,35.1015149,,,,
GPS2_RAW,205.09199999999998,0.0,,,,48.5468742,35.1015149,,,,
GLOBAL_POSITION_INT,205.091,,,,,48.5468732,35.1015162,-1.106,,,
MOUNT_STATUS,,,,,,,,,44.0,0.0,-173.0
ATTITUDE,205.431,2.6063408851623535,-0.04968135803937912,0.2076561003923416,,,,,,,
AHRS2,,2.5904271602630615,-0.04406869038939476,0.21513642370700836,0.0,0.0,0.0,,,,
AHRS3,,2.6063408851623535,-0.04968135803937912,0.2076561003923416,56.0,48.546873299999994,35.1015161,,,,
GPS_RAW_INT,205.291,0.0,,,,48.5468743,35.1015149,,,,
GPS2_RAW,205.292,0.0,,,,48.5468743,35.1015149,,,,
GLOBAL_POSITION_INT,205.291,,,,,48.546873299999994,35.1015161,-1.107,,,
MOUNT_STATUS,,,,,,,,,44.0,0.0,-173.0
ATTITUDE,205.671,2.6063525676727295,-0.04967333376407623,0.20767821371555328,,,,,,,
AHRS2,,2.5906267166137695,-0.04454664885997772,0.21515320241451263,0.0,0.0,0.0,,,,
AHRS3,,2.6063525676727295,-0.04967333376407623,0.20767821371555328,56.0,48.546873399999996,35.101516,,,,
GPS_RAW_INT,205.691,0.0,,,,48.5468744,35.1015146,,,,
GPS2_RAW,205.69199999999998,0.0,,,,48.5468744,35.1015146,,,,
GLOBAL_POSITION_INT,205.691,,,,,48.546873399999996,35.101515899999995,-1.106,,,
MOUNT_STATUS,,,,,,,,,44.0,0.0,-174.0
GPS_RAW_INT,205.891,0.0,,,,48.5468744,35.1015145,,,,
GPS2_RAW,205.892,0.0,,,,48.5468744,35.1015145,,,,
ATTITUDE,205.971,2.606372833251953,-0.049753814935684204,0.20783613622188568,,,,,,,
AHRS2,,2.590707540512085,-0.04439888894557953,0.21515849232673645,0.0,0.0,0.0,,,,
AHRS3,,2.606372833251953,-0.049753814935684204,0.20783613622188568,56.0,48.546873399999996,35.1015158,,,,
GLOBAL_POSITION_INT,205.891,,,,,48.546873399999996,35.1015158,-1.106,,,
GPS_RAW_INT,206.09099999999998,0.0,,,,48.5468744,35.1015144,,,,
GPS2_RAW,206.09199999999998,0.0,,,,48.5468744,35.1015144,,,,
ATTITUDE,206.252,2.606412887573242,-0.049766555428504944,0.2077978253364563,,,,,,,
AHRS2,,2.590726137161255,-0.04403503239154816,0.2146814465522766,0.0,0.0,0.0,,,,
AHRS3,,2.606412887573242,-0.049766555428504944,0.2077978253364563,56.0,48.5468735,35.1015157,,,,
MOUNT_STATUS,,,,,,,,,44.0,0.0,-174.0
GLOBAL_POSITION_INT,206.291,,,,,48.5468735,35.1015157,-1.103,,,
GPS_RAW_INT,206.291,0.0,,,,48.5468745,35.1015143,,,,
GPS2_RAW,206.292,0.0,,,,48.5468745,35.1015143,,,,
ATTITUDE,206.512,2.6063458919525146,-0.049712784588336945,0.20783676207065582,,,,,,,
AHRS2,,2.590664863586426,-0.042547497898340225,0.21576546132564545,0.0,0.0,0.0,,,,
AHRS3,,2.6063458919525146,-0.049712784588336945,0.20783676207065582,56.0,48.5468736,35.1015155,,,,
GLOBAL_POSITION_INT,206.491,,,,,48.5468736,35.1015155,-1.106,,,
MOUNT_STATUS,,,,,,,,,44.0,0.0,-174.0
GPS_RAW_INT,206.691,0.0,,,,48.546874599999995,35.1015139,,,,
GPS2_RAW,206.69199999999998,0.0,,,,48.546874599999995,35.1015139,,,,
ATTITUDE,206.791,2.6063218116760254,-0.049601323902606964,0.20796047151088715,,,,,,,
AHRS2,,2.5907158851623535,-0.04372626915574074,0.21571891009807587,0.0,0.0,0.0,,,,
AHRS3,,2.6063218116760254,-0.049601323902606964,0.20796047151088715,56.0,48.5468736,35.101515299999996,,,,
GLOBAL_POSITION_INT,206.691,,,,,48.5468736,35.101515299999996,-1.107,,,
MOUNT_STATUS,,,,,,,,,44.0,0.0,-174.0
GPS_RAW_INT,206.891,0.0,,,,48.546874599999995,35.1015137,,,,
GPS2_RAW,206.892,0.0,,,,48.546874599999995,35.1015137,,,,
GLOBAL_POSITION_INT,207.091,,,,,48.5468737,35.101515,-1.105,,,
ATTITUDE,207.112,2.606278419494629,-0.04958866536617279,0.2080918401479721,,,,,,,
AHRS2,,2.590803623199463,-0.04311976581811905,0.21546250581741333,0.0,0.0,0.0,,,,
AHRS3,,2.606278419494629,-0.04958866536617279,0.2080918401479721,56.0,48.5468737,35.101515,,,,
GPS_RAW_INT,207.09099999999998,0.0,,,,48.5468747,35.1015136,,,,
GPS2_RAW,207.09199999999998,0.0,,,,48.5468747,35.1015136,,,,
MOUNT_STATUS,,,,,,,,,44.0,0.0,-175.0
GLOBAL_POSITION_INT,207.291,,,,,48.5468738,35.1015148,-1.11,,,
ATTITUDE,207.41,2.606302499771118,-0.04961739480495453,0.20808954536914825,,,,,,,
AHRS2,,2.5907859802246094,-0.043101876974105835,0.215108722448349,0.0,0.0,0.0,,,,
AHRS3,,2.606302499771118,-0.04961739480495453,0.20808954536914825,56.0,48.5468738,35.1015148,,,,
GPS_RAW_INT,207.291,0.0,,,,48.5468747,35.1015136,,,,
GPS2_RAW,207.292,0.0,,,,48.5468747,35.1015136,,,,
MOUNT_STATUS,,,,,,,,,44.0,0.0,-175.0
GLOBAL_POSITION_INT,207.51,,,,,48.5468738,35.101514699999996,-1.114,,,
ATTITUDE,207.651,2.6063084602355957,-0.049722254276275635,0.20803065598011017,,,,,,,
AHRS2,,2.5906004905700684,-0.043184831738471985,0.2153092622756958,0.0,0.0,0.0,,,,
AHRS3,,2.6063084602355957,-0.049722254276275635,0.20803065598011017,56.0,48.5468738,35.101514699999996,,,,
GPS_RAW_INT,207.51,0.0,,,,48.5468748,35.101513499999996,,,,
GPS2_RAW,207.511,0.0,,,,48.5468748,35.101513499999996,,,,
MOUNT_STATUS,,,,,,,,,44.0,0.0,-175.0
GLOBAL_POSITION_INT,207.691,,,,,48.5468738,35.1015145,-1.12,,,
ATTITUDE,207.912,2.606255292892456,-0.04977136850357056,0.20805220305919647,,,,,,,
AHRS2,,2.5903127193450928,-0.04369001463055611,0.21620412170886993,0.0,0.0,0.0,,,,
AHRS3,,2.606255292892456,-0.04977136850357056,0.20805220305919647,56.0,48.5468738,35.1015145,,,,
GPS_RAW_INT,207.891,0.0,,,,48.5468747,35.1015133,,,,
GPS2_RAW,207.892,0.0,,,,48.5468747,35.1015133,,,,
MOUNT_STATUS,,,,,,,,,44.0,0.0,-175.0
GLOBAL_POSITION_INT,208.091,,,,,48.546873899999994,35.1015143,-1.1280000000000001,,,
GPS_RAW_INT,208.09099999999998,0.0,,,,48.5468747,35.1015132,,,,
GPS2_RAW,208.09199999999998,0.0,,,,48.5468747,35.1015132,,,,
ATTITUDE,208.191,2.6062800884246826,-0.04984816908836365,0.20764318108558655,,,,,,,
AHRS2,,2.5904152393341064,-0.04344091936945915,0.21501818299293518,0.0,0.0,0.0,,,,
AHRS3,,2.6062800884246826,-0.04984816908836365,0.20764318108558655,56.0,48.546873899999994,35.1015143,,,,
MOUNT_STATUS,,,,,,,,,44.0,0.0,-175.0
GLOBAL_POSITION_INT,208.311,,,,,48.546873899999994,35.101514099999996,-1.1360000000000001,,,
GPS_RAW_INT,208.31099999999998,0.0,,,,48.5468748,35.1015131,,,,
GPS2_RAW,208.31099999999998,0.0,,,,48.5468748,35.1015131,,,,
ATTITUDE,208.451,2.6062722206115723,-0.049924954771995544,0.2077978253364563,,,,,,,
AHRS2,,2.5901665687561035,-0.04334244504570961,0.215126171708107,0.0,0.0,0.0,,,,
AHRS3,,2.6062722206115723,-0.049924954771995544,0.2077978253364563,56.0,48.546873899999994,35.101514099999996,,,,
GPS_RAW_INT,208.49099999999999,0.0,,,,48.5468749,35.101513,,,,
GPS2_RAW,208.492,0.0,,,,48.5468749,35.101513,,,,
GLOBAL_POSITION_INT,208.491,,,,,48.546873899999994,35.101514,-1.141,,,
MOUNT_STATUS,,,,,,,,,44.0,0.0,-176.0
ATTITUDE,208.751,2.6062557697296143,-0.04979071021080017,0.20788311958312988,,,,,,,
AHRS2,,2.5901875495910645,-0.042542774230241776,0.2144356518983841,0.0,0.0,0.0,,,,
AHRS3,,2.606248617172241,-0.049782685935497284,0.20787115395069122,56.0,48.546873999999995,35.1015139,,,,
GPS_RAW_INT,208.911,0.0,,,,48.5468751,35.101513,,,,
GPS2_RAW,208.911,0.0,,,,48.5468751,35.101513,,,,
GLOBAL_POSITION_INT,208.911,,,,,48.5468741,35.1015139,-1.1420000000000001,,,
MOUNT_STATUS,,,,,,,,,44.0,0.0,-176.0
ATTITUDE,209.05100000000002,2.606194257736206,-0.049698494374752045,0.2077506184577942,,,,,,,
AHRS2,,2.590363025665283,-0.042892228811979294,0.2145916074514389,0.0,0.0,0.0,,,,
AHRS3,,2.606194257736206,-0.049698494374752045,0.2077506184577942,56.0,48.5468741,35.1015139,,,,
GPS_RAW_INT,209.111,0.0,,,,48.5468751,35.101513,,,,
GPS2_RAW,209.112,0.0,,,,48.5468751,35.101513,,,,
GLOBAL_POSITION_INT,209.11100000000002,,,,,48.5468742,35.1015138,-1.143,,,
MOUNT_STATUS,,,,,,,,,44.0,0.0,-176.0
ATTITUDE,209.311,2.606154441833496,-0.04976970702409744,0.20765963196754456,,,,,,,
AHRS2,,2.5904507637023926,-0.0437246598303318,0.2154553085565567,0.0,0.0,0.0,,,,
AHRS3,,2.606154441833496,-0.04976970702409744,0.20765963196754456,56.0,48.5468742,35.1015138,,,,
GPS_RAW_INT,209.31099999999998,0.0,,,,48.546875199999995,35.101513,,,,
GPS2_RAW,209.31099999999998,0.0,,,,48.546875199999995,35.101513,,,,
GLOBAL_POSITION_INT,209.311,,,,,48.5468743,35.1015138,-1.141,,,
ATTITUDE,209.57,2.606144905090332,-0.04983263462781906,0.20752544701099396,,,,,,,
AHRS2,,2.5907540321350098,-0.04312606528401375,0.2148849219083786,0.0,0.0,0.0,,,,
AHRS3,,2.606144905090332,-0.04983263462781906,0.20752544701099396,56.0,48.5468743,35.1015138,,,,
MOUNT_STATUS,,,,,,,,,44.0,0.0,-177.0
GPS_RAW_INT,209.511,0.0,,,,48.546875299999996,35.101513,,,,
GPS2_RAW,209.511,0.0,,,,48.546875299999996,35.101513,,,,
GLOBAL_POSITION_INT,209.711,,,,,48.5468744,35.1015138,-1.1300000000000001,,,
ATTITUDE,209.81,2.606118679046631,-0.04989750683307648,0.2072111815214157,,,,,,,
AHRS2,,2.590925931930542,-0.04324234277009964,0.21485990285873413,0.0,0.0,0.0,,,,
AHRS3,,2.6061086654663086,-0.04989256709814072,0.20717494189739227,56.0,48.5468745,35.1015138,,,,
MOUNT_STATUS,,,,,,,,,44.0,0.0,-177.0
GPS_RAW_INT,209.891,0.0,,,,48.5468755,35.101512899999996,,,,
GPS2_RAW,209.892,0.0,,,,48.5468755,35.101512899999996,,,,
GLOBAL_POSITION_INT,209.891,,,,,48.546874599999995,35.1015138,-1.118,,,
ATTITUDE,210.092,2.606104612350464,-0.04980716109275818,0.2070716917514801,,,,,,,
AHRS2,,2.590789318084717,-0.042420655488967896,0.21517044305801392,0.0,0.0,0.0,,,,
AHRS3,,2.606104612350464,-0.04980716109275818,0.2070716917514801,56.0,48.5468747,35.1015138,,,,
MOUNT_STATUS,,,,,,,,,44.0,0.0,-177.0
GPS_RAW_INT,210.111,0.0,,,,48.5468755,35.1015128,,,,
GPS2_RAW,210.111,0.0,,,,48.5468755,35.1015128,,,,
GLOBAL_POSITION_INT,210.11100000000002,,,,,48.5468747,35.1015137,-1.105,,,
ATTITUDE,210.352,2.606088876724243,-0.04981233924627304,0.20698070526123047,,,,,,,
AHRS2,,2.5907599925994873,-0.04386190325021744,0.21613921225070953,0.0,0.0,0.0,,,,
AHRS3,,2.606088876724243,-0.04981233924627304,0.20698070526123047,56.0,48.5468747,35.1015137,,,,
GPS_RAW_INT,210.31099999999998,0.0,,,,48.5468755,35.1015128,,,,
GPS2_RAW,210.31099999999998,0.0,,,,48.5468755,35.1015128,,,,
MOUNT_STATUS,,,,,,,,,44.0,0.0,-177.0
GLOBAL_POSITION_INT,210.511,,,,,48.5468748,35.1015137,-1.094,,,
GPS_RAW_INT,210.511,0.0,,,,48.5468756,35.1015127,,,,
GPS2_RAW,210.511,0.0,,,,48.5468756,35.1015127,,,,
ATTITUDE,210.671,2.6061360836029053,-0.049856700003147125,0.2069944441318512,,,,,,,
AHRS2,,2.5907278060913086,-0.04290132224559784,0.21550655364990234,0.0,0.0,0.0,,,,
AHRS3,,2.6061360836029053,-0.049856700003147125,0.2069944441318512,56.0,48.5468748,35.1015136,,,,
MOUNT_STATUS,,,,,,,,,44.0,0.0,-178.0
GLOBAL_POSITION_INT,210.711,,,,,48.5468749,35.1015136,-1.085,,,
GPS_RAW_INT,210.911,0.0,,,,48.5468756,35.1015126,,,,
GPS2_RAW,210.911,0.0,,,,48.5468756,35.1015126,,,,
ATTITUDE,210.971,2.6061224937438965,-0.049882784485816956,0.2070920467376709,,,,,,,
AHRS2,,2.5907249450683594,-0.04326099157333374,0.21560609340667725,0.0,0.0,0.0,,,,
AHRS3,,2.6061224937438965,-0.049882784485816956,0.2070920467376709,56.0,48.5468749,35.101513499999996,,,,
GLOBAL_POSITION_INT,210.911,,,,,48.5468749,35.101513499999996,-1.079,,,
MOUNT_STATUS,,,,,,,,,44.0,0.0,-178.0
GPS_RAW_INT,211.111,0.0,,,,48.5468756,35.1015126,,,,
GPS2_RAW,211.111,0.0,,,,48.5468756,35.1015126,,,,
ATTITUDE,211.251,2.606091022491455,-0.0500108078122139,0.20709510147571564,,,,,,,
AHRS2,,2.5907318592071533,-0.043728139251470566,0.21562327444553375,0.0,0.0,0.0,,,,
AHRS3,,2.606091022491455,-0.0500108078122139,0.20709510147571564,56.0,48.5468749,35.101513499999996,,,,
GLOBAL_POSITION_INT,211.311,,,,,48.5468749,35.101513499999996,-1.074,,,
MOUNT_STATUS,,,,,,,,,44.0,0.0,-178.0
GPS_RAW_INT,211.31099999999998,0.0,,,,48.5468755,35.1015128,,,,
GPS2_RAW,211.31099999999998,0.0,,,,48.5468755,35.1015128,,,,
ATTITUDE,211.532,2.6060991287231445,-0.050441086292266846,0.2070225179195404,,,,,,,
AHRS2,,2.5907464027404785,-0.04594467952847481,0.214584618806839,0.0,0.0,0.0,,,,
AHRS3,,2.6060991287231445,-0.050441086292266846,0.2070225179195404,56.0,48.5468748,35.1015136,,,,
GLOBAL_POSITION_INT,211.511,,,,,48.5468748,35.1015136,-1.065,,,
GPS_RAW_INT,211.511,0.0,,,,48.5468754,35.101513,,,,
GPS2_RAW,211.511,0.0,,,,48.5468754,35.101513,,,,
MOUNT_STATUS,,,,,,,,,44.0,0.0,-178.0
ATTITUDE,211.77100000000002,2.606139898300171,-0.050756484270095825,0.20691046118736267,,,,,,,
AHRS2,,2.590832233428955,-0.044250164180994034,0.21496489644050598,0.0,0.0,0.0,,,,
AHRS3,,2.606139898300171,-0.050756484270095825,0.20691046118736267,56.0,48.5468748,35.1015137,,,,
GLOBAL_POSITION_INT,211.711,,,,,48.5468748,35.1015138,-1.053,,,
GPS_RAW_INT,211.911,0.0,,,,48.5468757,35.101513,,,,
GPS2_RAW,211.911,0.0,,,,48.5468757,35.101513,,,,
MOUNT_STATUS,,,,,,,,,44.0,0.0,-179.0
ATTITUDE,212.09,2.606238603591919,-0.05062396824359894,0.20684954524040222,,,,,,,
AHRS2,,2.590817928314209,-0.04258111119270325,0.2141789048910141,0.0,0.0,0.0,,,,
AHRS3,,2.606238603591919,-0.05062396824359894,0.20684954524040222,56.0,48.5468748,35.1015138,,,,
GLOBAL_POSITION_INT,212.11100000000002,,,,,48.5468749,35.1015138,-1.046,,,
GPS_RAW_INT,212.111,0.0,,,,48.5468757,35.101513,,,,
GPS2_RAW,212.111,0.0,,,,48.5468757,35.101513,,,,
MOUNT_STATUS,,,,,,,,,44.0,0.0,-179.0
ATTITUDE,212.371,2.6062631607055664,-0.05046583712100983,0.20683446526527405,,,,,,,
AHRS2,,2.5908396244049072,-0.04389544203877449,0.2153843492269516,0.0,0.0,0.0,,,,
AHRS3,,2.6062631607055664,-0.05046583712100983,0.20683446526527405,56.0,48.5468749,35.1015138,,,,
GPS_RAW_INT,212.31099999999998,0.0,,,,48.5468757,35.101512899999996,,,,
GPS2_RAW,212.31199999999998,0.0,,,,48.5468757,35.101512899999996,,,,
GLOBAL_POSITION_INT,212.311,,,,,48.5468749,35.1015138,-1.049,,,
MOUNT_STATUS,,,,,,,,,44.0,0.0,-179.0
ATTITUDE,212.671,2.6062746047973633,-0.050501495599746704,0.2069404274225235,,,,,,,
AHRS2,,2.590961456298828,-0.044275473803281784,0.21471402049064636,0.0,0.0,0.0,,,,
AHRS3,,2.6062746047973633,-0.050501495599746704,0.2069404274225235,56.0,48.5468749,35.1015138,,,,
GPS_RAW_INT,212.511,0.0,,,,48.5468757,35.101512899999996,,,,
GPS2_RAW,212.511,0.0,,,,48.5468757,35.101512899999996,,,,
GLOBAL_POSITION_INT,212.711,,,,,48.5468749,35.1015138,-1.051,,,
ATTITUDE,212.912,2.60628604888916,-0.050510212779045105,0.20704884827136993,,,,,,,
AHRS2,,2.591015338897705,-0.043772920966148376,0.21553020179271698,0.0,0.0,0.0,,,,
AHRS3,,2.60628604888916,-0.050510212779045105,0.20704884827136993,56.0,48.5468749,35.1015138,,,,
GPS_RAW_INT,212.911,0.0,,,,48.546875799999995,35.1015128,,,,
GPS2_RAW,212.911,0.0,,,,48.546875799999995,35.1015128,,,,
MOUNT_STATUS,,,,,,,,,44.0,0.0,-180.0
GLOBAL_POSITION_INT,212.911,,,,,48.5468749,35.1015138,-1.063,,,
GPS_RAW_INT,213.111,0.0,,,,48.546875899999996,35.1015128,,,,
GPS2_RAW,213.111,0.0,,,,48.546875899999996,35.1015128,,,,
ATTITUDE,213.232,2.6063296794891357,-0.050471313297748566,0.2071615308523178,,,,,,,
AHRS2,,2.5911269187927246,-0.043319907039403915,0.21510332822799683,0.0,0.0,0.0,,,,
AHRS3,,2.6063296794891357,-0.050471313297748566,0.2071615308523178,56.0,48.5468749,35.1015137,,,,
MOUNT_STATUS,,,,,,,,,44.0,0.0,-180.0
GLOBAL_POSITION_INT,213.11100000000002,,,,,48.5468749,35.1015137,-1.075,,,
GPS_RAW_INT,213.31099999999998,0.0,,,,48.546875899999996,35.1015127,,,,
GPS2_RAW,213.31099999999998,0.0,,,,48.546875899999996,35.1015127,,,,
ATTITUDE,214.292,2.6063284873962402,-0.05002204328775406,0.20754486322402954,,,,,,,
AHRS2,,2.590686798095703,-0.043052852153778076,0.21495097875595093,0.0,0.0,0.0,,,,
AHRS3,,2.6063284873962402,-0.05002204328775406,0.20754486322402954,56.0,48.546875,35.1015132,,,,
GLOBAL_POSITION_INT,214.311,,,,,48.546875,35.1015132,-1.109,,,
MOUNT_STATUS,,,,,,,,,44.0,0.0,-180.0
GPS_RAW_INT,214.511,0.0,,,,48.5468762,35.1015127,,,,
GPS2_RAW,214.511,0.0,,,,48.5468762,35.1015127,,,,
ATTITUDE,215.332,2.6063027381896973,-0.0499209463596344,0.20713675022125244,,,,,,,
AHRS2,,2.590569496154785,-0.043111734092235565,0.21539069712162018,0.0,0.0,0.0,,,,
AHRS3,,2.606307029724121,-0.04990244656801224,0.20713748037815094,56.0,48.5468754,35.1015133,,,,
GLOBAL_POSITION_INT,215.311,,,,,48.5468754,35.1015133,-1.11,,,
MOUNT_STATUS,,,,,,,,,44.0,0.0,-181.0
GPS_RAW_INT,215.31099999999998,0.0,,,,48.5468763,35.1015131,,,,
GPS2_RAW,215.31199999999998,0.0,,,,48.5468763,35.1015131,,,,
ATTITUDE,215.59,2.6062915325164795,-0.0498989000916481,0.20713205635547638,,,,,,,
AHRS2,,2.5903286933898926,-0.04290027543902397,0.21546630561351776,0.0,0.0,0.0,,,,
AHRS3,,2.6062915325164795,-0.0498989000916481,0.20713205635547638,56.0,48.5468755,35.1015134,,,,
GLOBAL_POSITION_INT,215.51,,,,,48.5468755,35.1015134,-1.113,,,
GPS_RAW_INT,215.71099999999998,0.0,,,,48.546876399999995,35.1015132,,,,
GPS2_RAW,215.71099999999998,0.0,,,,48.546876399999995,35.1015132,,,,
MOUNT_STATUS,,,,,,,,,44.0,0.0,-182.0
GLOBAL_POSITION_INT,215.711,,,,,48.5468755,35.101513499999996,-1.116,,,
ATTITUDE,215.911,2.6063151359558105,-0.04989801347255707,0.20700226724147797,,,,,,,
AHRS2,,2.5902516841888428,-0.04303276166319847,0.21573598682880402,0.0,0.0,0.0,,,,
AHRS3,,2.6063151359558105,-0.04989801347255707,0.20700226724147797,56.0,48.5468755,35.101513499999996,,,,
GPS_RAW_INT,215.911,0.0,,,,48.5468763,35.1015132,,,,
GPS2_RAW,215.911,0.0,,,,48.5468763,35.1015132,,,,
MOUNT_STATUS,,,,,,,,,44.0,0.0,-182.0
GLOBAL_POSITION_INT,216.11100000000002,,,,,48.5468755,35.101513499999996,-1.117,,,
ATTITUDE,216.251,2.606282949447632,-0.04991989582777023,0.20709381997585297,,,,,,,
AHRS2,,2.5901966094970703,-0.04202780872583389,0.21596339344978333,0.0,0.0,0.0,,,,
AHRS3,,2.606282949447632,-0.04991989582777023,0.20709381997585297,56.0,48.5468756,35.101513499999996,,,,
GPS_RAW_INT,216.111,0.0,,,,48.546876399999995,35.1015132,,,,
GPS2_RAW,216.111,0.0,,,,48.546876399999995,35.1015132,,,,
MOUNT_STATUS,,,,,,,,,44.0,0.0,-182.0
GLOBAL_POSITION_INT,216.311,,,,,48.5468756,35.101513499999996,-1.12,,,
GPS_RAW_INT,216.511,0.0,,,,48.546876399999995,35.1015134,,,,
GPS2_RAW,216.511,0.0,,,,48.546876399999995,35.1015134,,,,
ATTITUDE,216.55100000000002,2.6063199043273926,-0.04991941154003143,0.20701263844966888,,,,,,,
AHRS2,,2.590022087097168,-0.04329628869891167,0.2163754403591156,0.0,0.0,0.0,,,,
AHRS3,,2.6063199043273926,-0.04991941154003143,0.20701263844966888,56.0,48.5468756,35.1015136,,,,
GLOBAL_POSITION_INT,216.511,,,,,48.5468756,35.1015136,-1.123,,,
MOUNT_STATUS,,,,,,,,,44.0,0.0,-183.0
GPS_RAW_INT,216.71099999999998,0.0,,,,48.546876399999995,35.101513499999996,,,,
GPS2_RAW,216.71099999999998,0.0,,,,48.546876399999995,35.101513499999996,,,,
ATTITUDE,216.83100000000002,2.6063647270202637,-0.05001062899827957,0.20707601308822632,,,,,,,
AHRS2,,2.5900819301605225,-0.04277125373482704,0.21632303297519684,0.0,0.0,0.0,,,,
AHRS3,,2.6063647270202637,-0.05001062899827957,0.20707601308822632,56.0,48.5468756,35.1015136,,,,
GLOBAL_POSITION_INT,216.91,,,,,48.5468756,35.1015137,-1.127,,,
MOUNT_STATUS,,,,,,,,,44.0,0.0,-183.0
GPS_RAW_INT,216.91,0.0,,,,48.546876399999995,35.1015136,,,,
GPS2_RAW,216.911,0.0,,,,48.546876399999995,35.1015136,,,,
ATTITUDE,217.07,2.606363296508789,-0.05008271336555481,0.20705321431159973,,,,,,,
AHRS2,,2.5898690223693848,-0.04294614493846893,0.21601854264736176,0.0,0.0,0.0,,,,
AHRS3,,2.6063618659973145,-0.05009308457374573,0.20705613493919373,56.0,48.5468756,35.1015137,,,,
GLOBAL_POSITION_INT,217.11100000000002,,,,,48.5468756,35.1015137,-1.135,,,
GPS_RAW_INT,217.111,0.0,,,,48.546876399999995,35.1015136,,,,
GPS2_RAW,217.111,0.0,,,,48.546876399999995,35.1015136,,,,
MOUNT_STATUS,,,,,,,,,44.0,0.0,-183.0
ATTITUDE,217.352,2.606358289718628,-0.05012011528015137,0.20712730288505554,,,,,,,
AHRS2,,2.589682102203369,-0.042786307632923126,0.21658144891262054,0.0,0.0,0.0,,,,
AHRS3,,2.606358289718628,-0.05012011528015137,0.20712730288505554,56.0,48.5468756,35.1015138,,,,
GLOBAL_POSITION_INT,217.311,,,,,48.5468756,35.1015139,-1.141,,,
GPS_RAW_INT,217.511,0.0,,,,48.546876399999995,35.101514,,,,
GPS2_RAW,217.511,0.0,,,,48.546876399999995,35.101514,,,,
MOUNT_STATUS,,,,,,,,,44.0,0.0,-183.0
ATTITUDE,217.631,2.6063079833984375,-0.05018359422683716,0.20693787932395935,,,,,,,
AHRS2,,2.5898427963256836,-0.04296844080090523,0.2149224728345871,0.0,0.0,0.0,,,,
AHRS3,,2.6063146591186523,-0.050194211304187775,0.20694299042224884,56.0,48.5468756,35.101514,,,,
GPS_RAW_INT,217.71099999999998,0.0,,,,48.546876499999996,35.101514,,,,
GPS2_RAW,217.71099999999998,0.0,,,,48.546876499999996,35.101514,,,,
GLOBAL_POSITION_INT,217.711,,,,,48.5468757,35.101514099999996,-1.145,,,
ATTITUDE,217.951,2.6063308715820312,-0.05017712712287903,0.20696455240249634,,,,,,,
AHRS2,,2.5898399353027344,-0.04259274899959564,0.21515831351280212,0.0,0.0,0.0,,,,
AHRS3,,2.6063308715820312,-0.05017712712287903,0.20696455240249634,56.0,48.5468757,35.1015142,,,,
MOUNT_STATUS,,,,,,,,,44.0,0.0,-184.0
GPS_RAW_INT,217.911,0.0,,,,48.546876499999996,35.101514,,,,
GPS2_RAW,217.911,0.0,,,,48.546876499999996,35.101514,,,,
GLOBAL_POSITION_INT,217.911,,,,,48.5468757,35.1015142,-1.1460000000000001,,,
ATTITUDE,218.231,2.6063358783721924,-0.04999005049467087,0.20700545608997345,,,,,,,
AHRS2,,2.5898256301879883,-0.04292003810405731,0.21551856398582458,0.0,0.0,0.0,,,,
AHRS3,,2.6063358783721924,-0.04999005049467087,0.20700545608997345,56.0,48.546875799999995,35.1015143,,,,
GPS_RAW_INT,218.111,0.0,,,,48.546876499999996,35.101514,,,,
GPS2_RAW,218.111,0.0,,,,48.546876499999996,35.101514,,,,
MOUNT_STATUS,,,,,,,,,44.0,0.0,-184.0
GLOBAL_POSITION_INT,218.311,,,,,48.546875799999995,35.1015143,-1.1500000000000001,,,
GPS_RAW_INT,218.31099999999998,0.0,,,,48.546876499999996,35.101514099999996,,,,
GPS2_RAW,218.31099999999998,0.0,,,,48.546876499999996,35.101514099999996,,,,
ATTITUDE,218.534,2.606323480606079,-0.050008803606033325,0.20715230703353882,,,,,,,
AHRS2,,2.5897974967956543,-0.043536290526390076,0.2158178836107254,0.0,0.0,0.0,,,,
AHRS3,,2.6063296794891357,-0.049994438886642456,0.20714841783046722,56.0,48.546875799999995,35.1015143,,,,
GLOBAL_POSITION_INT,218.511,,,,,48.546875799999995,35.1015143,-1.1520000000000001,,,
MOUNT_STATUS,,,,,,,,,44.0,0.0,-184.0
GPS_RAW_INT,218.71099999999998,0.0,,,,48.5468766,35.1015142,,,,
GPS2_RAW,218.71099999999998,0.0,,,,48.5468766,35.1015142,,,,
ATTITUDE,218.791,2.606321096420288,-0.04992235451936722,0.20714034140110016,,,,,,,
AHRS2,,2.5897793769836426,-0.042474545538425446,0.21449270844459534,0.0,0.0,0.0,,,,
AHRS3,,2.606321096420288,-0.04992235451936722,0.20714034140110016,56.0,48.546875899999996,35.1015144,,,,
GLOBAL_POSITION_INT,218.711,,,,,48.546875899999996,35.1015144,-1.156,,,
MOUNT_STATUS,,,,,,,,,44.0,0.0,-185.0
GPS_RAW_INT,218.911,0.0,,,,48.5468767,35.1015142,,,,
GPS2_RAW,218.911,0.0,,,,48.5468767,35.1015142,,,,
ATTITUDE,219.05100000000002,2.6063215732574463,-0.049779221415519714,0.2070990353822708,,,,,,,
AHRS2,,2.589693546295166,-0.04260404407978058,0.2150818109512329,0.0,0.0,0.0,,,,
AHRS3,,2.6063215732574463,-0.049779221415519714,0.2070990353822708,56.0,48.546876,35.1015145,,,,
GLOBAL_POSITION_INT,218.911,,,,,48.546876,35.1015145,-1.157,,,
MOUNT_STATUS,,,,,,,,,44.0,0.0,-185.0
GPS_RAW_INT,219.10999999999999,0.0,,,,48.5468767,35.1015142,,,,
GPS2_RAW,219.111,0.0,,,,48.5468767,35.1015142,,,,
GLOBAL_POSITION_INT,219.311,,,,,48.546876,35.1015146,-1.162,,,
ATTITUDE,219.311,2.6063060760498047,-0.04967167228460312,0.20708371698856354,,,,,,,
AHRS2,,2.5893983840942383,-0.0431547537446022,0.21546339988708496,0.0,0.0,0.0,,,,
AHRS3,,2.6063232421875,-0.04967270791530609,0.20708484947681427,56.0,48.546876,35.1015146,,,,
GPS_RAW_INT,219.31099999999998,0.0,,,,48.5468767,35.1015142,,,,
GPS2_RAW,219.31099999999998,0.0,,,,48.5468767,35.1015142,,,,
MOUNT_STATUS,,,,,,,,,44.0,0.0,-185.0
